{"type":"FeatureCollection","features":[{"type":"Feature","geometry":{"type":"Point","coordinates":[11.56613268,48.13950527]},"properties":{"stop_id":"de:09162:1","stop_name":"Karlsplatz (Stachus)"}},{"type":"Feature","geometry":{"type":"Point","coordinates":[11.6446095,48.0893717]},"properties":{"stop_id":"de:09162:1010","stop_name":"Neuperlach Süd"}},{"type":"Feature","geometry":{"type":"Point","coordinates":[11.64277694,48.09477185]},"properties":{"stop_id":"de:09162:1020","stop_name":"Therese-Giehse-Allee"}},{"type":"Feature","geometry":{"type":"Point","coordinates":[11.64650495,48.1011253]},"properties":{"stop_id":"de:09162:1030","stop_name":"Neuperlach Zentrum"}},{"type":"Feature","geometry":{"type":"Point","coordinates":[11.646478,48.10889956]},"properties":{"stop_id":"de:09162:1040","stop_name":"Quiddestraße"}},{"type":"Feature","geometry":{"type":"Point","coordinates":[11.6314402,48.11839984]},"properties":{"stop_id":"de:09162:1050","stop_name":"Michaelibad"}},{"type":"Feature","geometry":{"type":"Point","coordinates":[11.61919616,48.12041482]},"properties":{"stop_id":"de:09162:1060","stop_name":"Innsbrucker Ring"}},{"type":"Feature","geometry":{"type":"Point","coordinates":[11.60937758,48.11840583]},"properties":{"stop_id":"de:09162:1070","stop_name":"Karl-Preis-Platz"}},{"type":"Feature","geometry":{"type":"Point","coordinates":[11.56355451,48.1455475]},"properties":{"stop_id":"de:09162:110","stop_name":"Königsplatz"}},{"type":"Feature","geometry":{"type":"Point","coordinates":[11.59524708,48.11086094]},"properties":{"stop_id":"de:09162:1110","stop_name":"Giesing Bahnhof"}},{"type":"Feature","geometry":{"type":"Point","coordinates":[11.53666794,48.11689454]},"properties":{"stop_id":"de:09162:1130","stop_name":"Harras"}},{"type":"Feature","geometry":{"type":"Point","coordinates":[11.54833705,48.11961123]},"properties":{"stop_id":"de:09162:1140","stop_name":"Implerstraße"}},{"type":"Feature","geometry":{"type":"Point","coordinates":[11.53302078,48.13353427]},"properties":{"stop_id":"de:09162:1150","stop_name":"Heimeranplatz"}},{"type":"Feature","geometry":{"type":"Point","coordinates":[11.58771021,48.11251635]},"properties":{"stop_id":"de:09162:1160","stop_name":"Untersbergstraße"}},{"type":"Feature","geometry":{"type":"Point","coordinates":[11.57971521,48.11513132]},"properties":{"stop_id":"de:09162:1170","stop_name":"Silberhornstraße"}},{"type":"Feature","geometry":{"type":"Point","coordinates":[11.57039968,48.11165866]},"properties":{"stop_id":"de:09162:1180","stop_name":"Candidplatz"}},{"type":"Feature","geometry":{"type":"Point","coordinates":[11.57484634,48.10894755]},"properties":{"stop_id":"de:09162:1190","stop_name":"Wettersteinplatz"}},{"type":"Feature","geometry":{"type":"Point","coordinates":[11.56440791,48.15142121]},"properties":{"stop_id":"de:09162:120","stop_name":"Theresienstraße"}},{"type":"Feature","geometry":{"type":"Point","coordinates":[11.58143997,48.10436472]},"properties":{"stop_id":"de:09162:1200","stop_name":"St.-Quirin-Platz"}},{"type":"Feature","geometry":{"type":"Point","coordinates":[11.57996673,48.09744771]},"properties":{"stop_id":"de:09162:1210","stop_name":"Mangfallplatz"}},{"type":"Feature","geometry":{"type":"Point","coordinates":[11.63381175,48.12658522]},"properties":{"stop_id":"de:09162:1220","stop_name":"Josephsburg"}},{"type":"Feature","geometry":{"type":"Point","coordinates":[11.64613664,48.12588366]},"properties":{"stop_id":"de:09162:1230","stop_name":"Kreillerstraße"}},{"type":"Feature","geometry":{"type":"Point","coordinates":[11.67099302,48.13077035]},"properties":{"stop_id":"de:09162:1240","stop_name":"Moosfeld"}},{"type":"Feature","geometry":{"type":"Point","coordinates":[11.69075596,48.13343235]},"properties":{"stop_id":"de:09162:1250","stop_name":"Messestadt West"}},{"type":"Feature","geometry":{"type":"Point","coordinates":[11.70326051,48.13338439]},"properties":{"stop_id":"de:09162:1260","stop_name":"Messestadt Ost"}},{"type":"Feature","geometry":{"type":"Point","coordinates":[11.56705794,48.15565826]},"properties":{"stop_id":"de:09162:130","stop_name":"Josephsplatz"}},{"type":"Feature","geometry":{"type":"Point","coordinates":[11.52643613,48.11697251]},"properties":{"stop_id":"de:09162:1330","stop_name":"Partnachplatz"}},{"type":"Feature","geometry":{"type":"Point","coordinates":[11.51678822,48.11790207]},"properties":{"stop_id":"de:09162:1340","stop_name":"Westpark"}},{"type":"Feature","geometry":{"type":"Point","coordinates":[11.56853118,48.16179446]},"properties":{"stop_id":"de:09162:140","stop_name":"Hohenzollernplatz"}},{"type":"Feature","geometry":{"type":"Point","coordinates":[11.54867841,48.11234841]},"properties":{"stop_id":"de:09162:1430","stop_name":"Brudermühlstraße"}},{"type":"Feature","geometry":{"type":"Point","coordinates":[11.54641466,48.10153324]},"properties":{"stop_id":"de:09162:1440","stop_name":"Thalkirchen (Tierpark)"}},{"type":"Feature","geometry":{"type":"Point","coordinates":[11.53656912,48.09831164]},"properties":{"stop_id":"de:09162:1450","stop_name":"Obersendling"}},{"type":"Feature","geometry":{"type":"Point","coordinates":[11.52425322,48.09796367]},"properties":{"stop_id":"de:09162:1460","stop_name":"Aidenbachstraße"}},{"type":"Feature","geometry":{"type":"Point","coordinates":[11.51407531,48.09721973]},"properties":{"stop_id":"de:09162:1470","stop_name":"Machtlfinger Straße"}},{"type":"Feature","geometry":{"type":"Point","coordinates":[11.49860632,48.09499384]},"properties":{"stop_id":"de:09162:1480","stop_name":"Forstenrieder Allee"}},{"type":"Feature","geometry":{"type":"Point","coordinates":[11.49114132,48.09122582]},"properties":{"stop_id":"de:09162:1490","stop_name":"Basler Straße"}},{"type":"Feature","geometry":{"type":"Point","coordinates":[11.57503498,48.12875577]},"properties":{"stop_id":"de:09162:150","stop_name":"Fraunhoferstraße"}},{"type":"Feature","geometry":{"type":"Point","coordinates":[11.48044238,48.08851362]},"properties":{"stop_id":"de:09162:1500","stop_name":"Fürstenried West"}},{"type":"Feature","geometry":{"type":"Point","coordinates":[11.50239721,48.1163128]},"properties":{"stop_id":"de:09162:1510","stop_name":"Holzapfelkreuth"}},{"type":"Feature","geometry":{"type":"Point","coordinates":[11.48919197,48.11839384]},"properties":{"stop_id":"de:09162:1520","stop_name":"Haderner Stern"}},{"type":"Feature","geometry":{"type":"Point","coordinates":[11.47716353,48.11533523]},"properties":{"stop_id":"de:09162:1530","stop_name":"Großhadern"}},{"type":"Feature","geometry":{"type":"Point","coordinates":[11.47362417,48.10897154]},"properties":{"stop_id":"de:09162:1540","stop_name":"Klinikum Großhadern"}},{"type":"Feature","geometry":{"type":"Point","coordinates":[11.57674178,48.11932338]},"properties":{"stop_id":"de:09162:160","stop_name":"Kolumbusplatz"}},{"type":"Feature","geometry":{"type":"Point","coordinates":[11.55848802,48.14763934]},"properties":{"stop_id":"de:09162:170","stop_name":"Stiglmaierplatz"}},{"type":"Feature","geometry":{"type":"Point","coordinates":[11.54557922,48.14998282]},"properties":{"stop_id":"de:09162:180","stop_name":"Mailingerstraße"}},{"type":"Feature","geometry":{"type":"Point","coordinates":[11.53311959,48.15342292]},"properties":{"stop_id":"de:09162:190","stop_name":"Rotkreuzplatz"}},{"type":"Feature","geometry":{"type":"Point","coordinates":[11.57542126,48.13724525]},"properties":{"stop_id":"de:09162:2","stop_name":"Marienplatz"}},{"type":"Feature","geometry":{"type":"Point","coordinates":[11.52853818,48.16982914]},"properties":{"stop_id":"de:09162:200","stop_name":"Westfriedhof"}},{"type":"Feature","geometry":{"type":"Point","coordinates":[11.55227167,48.13571653]},"properties":{"stop_id":"de:09162:240","stop_name":"Theresienwiese"}},{"type":"Feature","geometry":{"type":"Point","coordinates":[11.54017137,48.13385802]},"properties":{"stop_id":"de:09162:250","stop_name":"Schwanthalerhöhe"}},{"type":"Feature","geometry":{"type":"Point","coordinates":[11.5219715,48.1346374]},"properties":{"stop_id":"de:09162:260","stop_name":"Westendstraße"}},{"type":"Feature","geometry":{"type":"Point","coordinates":[11.50987119,48.13518896]},"properties":{"stop_id":"de:09162:270","stop_name":"Friedenheimer Straße"}},{"type":"Feature","geometry":{"type":"Point","coordinates":[11.5019211,48.13545874]},"properties":{"stop_id":"de:09162:280","stop_name":"Laimer Platz"}},{"type":"Feature","geometry":{"type":"Point","coordinates":[11.54982826,48.12521208]},"properties":{"stop_id":"de:09162:30","stop_name":"Poccistraße"}},{"type":"Feature","geometry":{"type":"Point","coordinates":[11.50764337,48.18079166]},"properties":{"stop_id":"de:09162:300","stop_name":"Moosach"}},{"type":"Feature","geometry":{"type":"Point","coordinates":[11.52915802,48.17686819]},"properties":{"stop_id":"de:09162:312","stop_name":"Georg-Brauchle-Ring"}},{"type":"Feature","geometry":{"type":"Point","coordinates":[11.54082714,48.21383277]},"properties":{"stop_id":"de:09162:320","stop_name":"Feldmoching"}},{"type":"Feature","geometry":{"type":"Point","coordinates":[11.56629437,48.17543649]},"properties":{"stop_id":"de:09162:340","stop_name":"Petuelring"}},{"type":"Feature","geometry":{"type":"Point","coordinates":[11.55617036,48.17889286]},"properties":{"stop_id":"de:09162:350","stop_name":"Olympiazentrum"}},{"type":"Feature","geometry":{"type":"Point","coordinates":[11.53002939,48.18219925]},"properties":{"stop_id":"de:09162:360","stop_name":"Olympia-Einkaufszentrum"}},{"type":"Feature","geometry":{"type":"Point","coordinates":[11.51787518,48.18186981]},"properties":{"stop_id":"de:09162:370","stop_name":"Moosacher St.-Martins-Platz"}},{"type":"Feature","geometry":{"type":"Point","coordinates":[11.546765,48.18608638]},"properties":{"stop_id":"de:09162:380","stop_name":"Oberwiesenfeld"}},{"type":"Feature","geometry":{"type":"Point","coordinates":[11.55826344,48.12952324]},"properties":{"stop_id":"de:09162:40","stop_name":"Goetheplatz"}},{"type":"Feature","geometry":{"type":"Point","coordinates":[11.57293292,48.17153657]},"properties":{"stop_id":"de:09162:400","stop_name":"Scheidplatz"}},{"type":"Feature","geometry":{"type":"Point","coordinates":[11.57815214,48.1667017]},"properties":{"stop_id":"de:09162:410","stop_name":"Bonnerplatz"}},{"type":"Feature","geometry":{"type":"Point","coordinates":[11.61429136,48.19196143]},"properties":{"stop_id":"de:09162:420","stop_name":"Freimann"}},{"type":"Feature","geometry":{"type":"Point","coordinates":[11.61301575,48.20307489]},"properties":{"stop_id":"de:09162:430","stop_name":"Kieferngarten"}},{"type":"Feature","geometry":{"type":"Point","coordinates":[11.6166719,48.21180948]},"properties":{"stop_id":"de:09162:470","stop_name":"Fröttmaning"}},{"type":"Feature","geometry":{"type":"Point","coordinates":[11.60454464,48.12815019]},"properties":{"stop_id":"de:09162:5","stop_name":"Ostbahnhof"}},{"type":"Feature","geometry":{"type":"Point","coordinates":[11.56668065,48.13344434]},"properties":{"stop_id":"de:09162:50","stop_name":"Sendlinger Tor"}},{"type":"Feature","geometry":{"type":"Point","coordinates":[11.58649749,48.16196224]},"properties":{"stop_id":"de:09162:500","stop_name":"Münchner Freiheit"}},{"type":"Feature","geometry":{"type":"Point","coordinates":[11.59048601,48.16680355]},"properties":{"stop_id":"de:09162:510","stop_name":"Dietlindenstraße"}},{"type":"Feature","geometry":{"type":"Point","coordinates":[11.59746592,48.1735315]},"properties":{"stop_id":"de:09162:520","stop_name":"Nordfriedhof"}},{"type":"Feature","geometry":{"type":"Point","coordinates":[11.60317022,48.17909652]},"properties":{"stop_id":"de:09162:530","stop_name":"Alte Heide"}},{"type":"Feature","geometry":{"type":"Point","coordinates":[11.60789536,48.18367268]},"properties":{"stop_id":"de:09162:540","stop_name":"Studentenstadt"}},{"type":"Feature","geometry":{"type":"Point","coordinates":[11.61552205,48.14350953]},"properties":{"stop_id":"de:09162:560","stop_name":"Böhmerwaldplatz"}},{"type":"Feature","geometry":{"type":"Point","coordinates":[11.60697009,48.13921153]},"properties":{"stop_id":"de:09162:570","stop_name":"Prinzregentenplatz"}},{"type":"Feature","geometry":{"type":"Point","coordinates":[11.59835525,48.13569254]},"properties":{"stop_id":"de:09162:580","stop_name":"Max-Weber-Platz"}},{"type":"Feature","geometry":{"type":"Point","coordinates":[11.58784496,48.13968511]},"properties":{"stop_id":"de:09162:590","stop_name":"Lehel"}},{"type":"Feature","geometry":{"type":"Point","coordinates":[11.56106618,48.1400268]},"properties":{"stop_id":"de:09162:6","stop_name":"Hauptbahnhof"}},{"type":"Feature","geometry":{"type":"Point","coordinates":[11.57748738,48.14268233]},"properties":{"stop_id":"de:09162:60","stop_name":"Odeonsplatz"}},{"type":"Feature","geometry":{"type":"Point","coordinates":[11.62042685,48.15327908]},"properties":{"stop_id":"de:09162:670","stop_name":"Arabellapark"}},{"type":"Feature","geometry":{"type":"Point","coordinates":[11.61660003,48.14853239]},"properties":{"stop_id":"de:09162:680","stop_name":"Richard-Strauss-Straße"}},{"type":"Feature","geometry":{"type":"Point","coordinates":[11.58082013,48.14951533]},"properties":{"stop_id":"de:09162:70","stop_name":"Universität"}},{"type":"Feature","geometry":{"type":"Point","coordinates":[11.5731575,48.18095338]},"properties":{"stop_id":"de:09162:740","stop_name":"Milbertshofen"}},{"type":"Feature","geometry":{"type":"Point","coordinates":[11.57267241,48.18736206]},"properties":{"stop_id":"de:09162:750","stop_name":"Frankfurter Ring"}},{"type":"Feature","geometry":{"type":"Point","coordinates":[11.571828,48.1967101]},"properties":{"stop_id":"de:09162:760","stop_name":"Am Hart"}},{"type":"Feature","geometry":{"type":"Point","coordinates":[11.56939356,48.20471536]},"properties":{"stop_id":"de:09162:770","stop_name":"Harthof"}},{"type":"Feature","geometry":{"type":"Point","coordinates":[11.56290773,48.2124919]},"properties":{"stop_id":"de:09162:780","stop_name":"Dülferstraße"}},{"type":"Feature","geometry":{"type":"Point","coordinates":[11.55599968,48.21328804]},"properties":{"stop_id":"de:09162:790","stop_name":"Hasenbergl"}},{"type":"Feature","geometry":{"type":"Point","coordinates":[11.58400017,48.15652121]},"properties":{"stop_id":"de:09162:80","stop_name":"Giselastraße"}},{"type":"Feature","geometry":{"type":"Point","coordinates":[11.66324056,48.12570378]},"properties":{"stop_id":"de:09162:920","stop_name":"Trudering"}},{"type":"Feature","geometry":{"type":"Point","coordinates":[11.52914904,48.16278913]},"properties":{"stop_id":"de:09162:990","stop_name":"Gern"}},{"type":"Feature","geometry":{"type":"Point","coordinates":[11.67138828,48.26467009]},"properties":{"stop_id":"de:09184:460","stop_name":"Garch.,Forschungsz."}},{"type":"Feature","geometry":{"type":"Point","coordinates":[11.63108986,48.24736104]},"properties":{"stop_id":"de:09184:480","stop_name":"Garching-Hochbrück"}},{"type":"Feature","geometry":{"type":"Point","coordinates":[11.65240688,48.2492573]},"properties":{"stop_id":"de:09184:490","stop_name":"Garching"}}]}